{"businesses": [{"id": "sA2gVTJOBH7Qk32p48ENdQ", "alias": "saltie-girl-boston", "name": "Saltie Girl", "image_url": "https://s3-media2.fl.yelpcdn.com/bphoto/sW9uQfuUX5JV6_EhIWbfGg/o.jpg", "is_closed": false, "url": "https://www.yelp.com/biz/saltie-girl-boston?adjust_creative=Ia1y9jsFUbkc4cDEThEkMg&utm_campaign=yelp_api_v3&utm_medium=api_v3_business_search&utm_source=Ia1y9jsFUbkc4cDEThEkMg", "review_count": 1368, "categories": [{"alias": "seafood", "title": "Seafood"}, {"alias": "cocktailbars", "title": "Cocktail Bars"}], "rating": 4.5, "coordinates": {"latitude": 42.35116, "longitude": -71.07758}, "transactions": ["pickup", "delivery"], "price": "$$$", "location": {"address1": "279 Dartmouth St", "address2": "", "address3": null, "city": "Boston", "zip_code": "02116", "country": "US", "state": "MA", "display_address": ["279 Dartmouth St", "Boston, MA 02116"]}, "phone": "+16172670691", "display_phone": "(617) 267-0691", "distance": 638.2135436456861}, {"id": "kP1b-7BO_VhWk_0tvuA_tw", "alias": "carmelinas-boston-2", "name": "Carmelina's", "image_url": "https://s3-media2.fl.yelpcdn.com/bphoto/WQi0dkl1EWam9toAwLl3qQ/o.jpg", "is_closed": false, "url": "https://www.yelp.com/biz/carmelinas-boston-2?adjust_creative=Ia1y9jsFUbkc4cDEThEkMg&utm_campaign=yelp_api_v3&utm_medium=api_v3_business_search&utm_source=Ia1y9jsFUbkc4cDEThEkMg", "review_count": 2491, "categories": [{"alias": "italian", "title": "Italian"}], "rating": 4.5, "coordinates": {"latitude": 42.36388, "longitude": -71.05415}, "transactions": ["restaurant_reservation", "delivery"], "price": "$$", "location": {"address1": "307 Hanover St", "address2": "", "address3": "", "city": "Boston", "zip_code": "02113", "country": "US", "state": "MA", "display_address": ["307 Hanover St", "Boston, MA 02113"]}, "phone": "+16177420020", "display_phone": "(617) 742-0020", "distance": 2272.1796574310406}, {"id": "xlOMKjE4omTgkI1eduWj8A", "alias": "the-friendly-toast-back-bay", "name": "The Friendly Toast", "image_url": "https://s3-media2.fl.yelpcdn.com/bphoto/-ZWdu-sc2CYLa1tg7nUAnA/o.jpg", "is_closed": false, "url": "https://www.yelp.com/biz/the-friendly-toast-back-bay?adjust_creative=Ia1y9jsFUbkc4cDEThEkMg&utm_campaign=yelp_api_v3&utm_medium=api_v3_business_search&utm_source=Ia1y9jsFUbkc4cDEThEkMg", "review_count": 2038, "categories": [{"alias": "bars", "title": "Bars"}, {"alias": "breakfast_brunch", "title": "Breakfast & Brunch"}, {"alias": "diners", "title": "Diners"}], "rating": 4.0, "coordinates": {"latitude": 42.3483479318913, "longitude": -71.0732730478048}, "transactions": ["restaurant_reservation", "pickup", "delivery"], "price": "$$", "location": {"address1": "35 Stanhope St", "address2": null, "address3": "", "city": "Back Bay", "zip_code": "02116", "country": "US", "state": "MA", "display_address": ["35 Stanhope St", "Back Bay, MA 02116"]}, "phone": "+16174567849", "display_phone": "(617) 456-7849", "distance": 176.04842333150364}, {"id": "tKRg7pxR2Sw7aSrHTQS5mQ", "alias": "buttermilk-and-bourbon-boston-2", "name": "Buttermilk & Bourbon", "image_url": "https://s3-media3.fl.yelpcdn.com/bphoto/_zDE2haOYTl_hJSsoW183g/o.jpg", "is_closed": false, "url": "https://www.yelp.com/biz/buttermilk-and-bourbon-boston-2?adjust_creative=Ia1y9jsFUbkc4cDEThEkMg&utm_campaign=yelp_api_v3&utm_medium=api_v3_business_search&utm_source=Ia1y9jsFUbkc4cDEThEkMg", "review_count": 729, "categories": [{"alias": "southern", "title": "Southern"}, {"alias": "bars", "title": "Bars"}, {"alias": "tapas", "title": "Tapas Bars"}], "rating": 4.0, "coordinates": {"latitude": 42.3513, "longitude": -71.07864}, "transactions": ["pickup", "delivery"], "price": "$$", "location": {"address1": "160 Commonwealth Ave", "address2": "", "address3": null, "city": "Boston", "zip_code": "02116", "country": "US", "state": "MA", "display_address": ["160 Commonwealth Ave", "Boston, MA 02116"]}, "phone": "+16172661122", "display_phone": "(617) 266-1122", "distance": 725.7267127712291}, {"id": "y2w6rFaO0XEiG5mFfOsiFA", "alias": "neptune-oyster-boston", "name": "Neptune Oyster", "image_url": "https://s3-media4.fl.yelpcdn.com/bphoto/A3vQV9-zP7EIpRq__sQ7OQ/o.jpg", "is_closed": false, "url": "https://www.yelp.com/biz/neptune-oyster-boston?adjust_creative=Ia1y9jsFUbkc4cDEThEkMg&utm_campaign=yelp_api_v3&utm_medium=api_v3_business_search&utm_source=Ia1y9jsFUbkc4cDEThEkMg", "review_count": 5386, "categories": [{"alias": "seafood", "title": "Seafood"}, {"alias": "salad", "title": "Salad"}, {"alias": "sandwiches", "title": "Sandwiches"}], "rating": 4.5, "coordinates": {"latitude": 42.36321, "longitude": -71.05594}, "transactions": ["delivery"], "price": "$$$", "location": {"address1": "63 Salem St", "address2": "", "address3": "", "city": "Boston", "zip_code": "02113", "country": "US", "state": "MA", "display_address": ["63 Salem St", "Boston, MA 02113"]}, "phone": "+16177423474", "display_phone": "(617) 742-3474", "distance": 2122.4029385375484}, {"id": "t_FFcwUutj9mIYKGw_gHsQ", "alias": "the-salty-pig-boston", "name": "The Salty Pig", "image_url": "https://s3-media2.fl.yelpcdn.com/bphoto/5UzgfJ2l3LZDBspzRrFfXw/o.jpg", "is_closed": false, "url": "https://www.yelp.com/biz/the-salty-pig-boston?adjust_creative=Ia1y9jsFUbkc4cDEThEkMg&utm_campaign=yelp_api_v3&utm_medium=api_v3_business_search&utm_source=Ia1y9jsFUbkc4cDEThEkMg", "review_count": 1711, "categories": [{"alias": "newamerican", "title": "American (New)"}, {"alias": "italian", "title": "Italian"}, {"alias": "pizza", "title": "Pizza"}], "rating": 4.0, "coordinates": {"latitude": 42.3469, "longitude": -71.076121}, "transactions": ["delivery"], "price": "$$", "location": {"address1": "130 Dartmouth St", "address2": "", "address3": "", "city": "Boston", "zip_code": "02116", "country": "US", "state": "MA", "display_address": ["130 Dartmouth St", "Boston, MA 02116"]}, "phone": "+16175366200", "display_phone": "(617) 536-6200", "distance": 414.30722121565236}, {"id": "lCMN0raxlHnBFDoLgkz4sw", "alias": "milkweed-boston", "name": "Milkweed", "image_url": "https://s3-media1.fl.yelpcdn.com/bphoto/oBOmBMsLFom8QH8FJtVpLw/o.jpg", "is_closed": false, "url": "https://www.yelp.com/biz/milkweed-boston?adjust_creative=Ia1y9jsFUbkc4cDEThEkMg&utm_campaign=yelp_api_v3&utm_medium=api_v3_business_search&utm_source=Ia1y9jsFUbkc4cDEThEkMg", "review_count": 793, "categories": [{"alias": "newamerican", "title": "American (New)"}, {"alias": "breakfast_brunch", "title": "Breakfast & Brunch"}, {"alias": "cocktailbars", "title": "Cocktail Bars"}], "rating": 4.0, "coordinates": {"latitude": 42.332183, "longitude": -71.099586}, "transactions": ["delivery"], "price": "$$", "location": {"address1": "1508 Tremont St", "address2": "", "address3": null, "city": "Boston", "zip_code": "02120", "country": "US", "state": "MA", "display_address": ["1508 Tremont St", "Boston, MA 02120"]}, "phone": "+16175168913", "display_phone": "(617) 516-8913", "distance": 2908.3126242712588}, {"id": "kb0VfKZKHHhvDze3JZqi0Q", "alias": "q-restaurant-boston", "name": "Q Restaurant", "image_url": "https://s3-media4.fl.yelpcdn.com/bphoto/fBtAMu25uFqRvXbGdJ1qlQ/o.jpg", "is_closed": false, "url": "https://www.yelp.com/biz/q-restaurant-boston?adjust_creative=Ia1y9jsFUbkc4cDEThEkMg&utm_campaign=yelp_api_v3&utm_medium=api_v3_business_search&utm_source=Ia1y9jsFUbkc4cDEThEkMg", "review_count": 1152, "categories": [{"alias": "chinese", "title": "Chinese"}, {"alias": "sushi", "title": "Sushi Bars"}, {"alias": "hotpot", "title": "Hot Pot"}], "rating": 4.0, "coordinates": {"latitude": 42.3517075922991, "longitude": -71.0625610949003}, "transactions": ["restaurant_reservation", "pickup", "delivery"], "price": "$$", "location": {"address1": "660 Washington St", "address2": "", "address3": "", "city": "Boston", "zip_code": "02111", "country": "US", "state": "MA", "display_address": ["660 Washington St", "Boston, MA 02111"]}, "phone": "+18573503968", "display_phone": "(857) 350-3968", "distance": 832.975637129062}, {"id": "EbUZhM4fLpsWQ8fpBhhgEQ", "alias": "mike-and-pattys-boston-boston", "name": "Mike & Patty's - Boston", "image_url": "https://s3-media1.fl.yelpcdn.com/bphoto/j_Ut4i4j2Q4d2TVEDPVt4g/o.jpg", "is_closed": false, "url": "https://www.yelp.com/biz/mike-and-pattys-boston-boston?adjust_creative=Ia1y9jsFUbkc4cDEThEkMg&utm_campaign=yelp_api_v3&utm_medium=api_v3_business_search&utm_source=Ia1y9jsFUbkc4cDEThEkMg", "review_count": 1867, "categories": [{"alias": "sandwiches", "title": "Sandwiches"}, {"alias": "breakfast_brunch", "title": "Breakfast & Brunch"}], "rating": 4.5, "coordinates": {"latitude": 42.348561, "longitude": -71.067928}, "transactions": ["pickup", "delivery"], "price": "$", "location": {"address1": "12 Church St", "address2": "", "address3": "", "city": "Boston", "zip_code": "02116", "country": "US", "state": "MA", "display_address": ["12 Church St", "Boston, MA 02116"]}, "phone": "+16174233447", "display_phone": "(617) 423-3447", "distance": 283.9483626062025}, {"id": "NYa-JphaaB41ElGsb3iawA", "alias": "toro-boston-2", "name": "Toro", "image_url": "https://s3-media2.fl.yelpcdn.com/bphoto/vavJneJjBulHvZAGit-bdQ/o.jpg", "is_closed": false, "url": "https://www.yelp.com/biz/toro-boston-2?adjust_creative=Ia1y9jsFUbkc4cDEThEkMg&utm_campaign=yelp_api_v3&utm_medium=api_v3_business_search&utm_source=Ia1y9jsFUbkc4cDEThEkMg", "review_count": 2255, "categories": [{"alias": "tapas", "title": "Tapas Bars"}, {"alias": "spanish", "title": "Spanish"}, {"alias": "cocktailbars", "title": "Cocktail Bars"}], "rating": 4.0, "coordinates": {"latitude": 42.33698788, "longitude": -71.07592429}, "transactions": ["delivery"], "price": "$$$", "location": {"address1": "1704 Washington St", "address2": null, "address3": "", "city": "Boston", "zip_code": "02118", "country": "US", "state": "MA", "display_address": ["1704 Washington St", "Boston, MA 02118"]}, "phone": "+16175364300", "display_phone": "(617) 536-4300", "distance": 1266.7234617418144}, {"id": "lPAzwB4vPBqZmaFNH90kiQ", "alias": "cafe-bonjour-boston", "name": "Cafe Bonjour", "image_url": "https://s3-media1.fl.yelpcdn.com/bphoto/tTN2z392sq953MlO3ZBrJQ/o.jpg", "is_closed": false, "url": "https://www.yelp.com/biz/cafe-bonjour-boston?adjust_creative=Ia1y9jsFUbkc4cDEThEkMg&utm_campaign=yelp_api_v3&utm_medium=api_v3_business_search&utm_source=Ia1y9jsFUbkc4cDEThEkMg", "review_count": 319, "categories": [{"alias": "breakfast_brunch", "title": "Breakfast & Brunch"}, {"alias": "coffee", "title": "Coffee & Tea"}, {"alias": "sandwiches", "title": "Sandwiches"}], "rating": 4.5, "coordinates": {"latitude": 42.354838, "longitude": -71.061816}, "transactions": ["pickup", "delivery"], "price": "$$", "location": {"address1": "55 Temple Pl", "address2": "", "address3": null, "city": "Boston", "zip_code": "02111", "country": "US", "state": "MA", "display_address": ["55 Temple Pl", "Boston, MA 02111"]}, "phone": "+16177790062", "display_phone": "(617) 779-0062", "distance": 1098.0438528058166}, {"id": "2u_w3rthRzR2uEihW5BC4A", "alias": "giacomos-ristorante-boston-boston", "name": "Giacomo's Ristorante - Boston", "image_url": "https://s3-media2.fl.yelpcdn.com/bphoto/9ZUg0rOjWesBtor3x2vmQA/o.jpg", "is_closed": false, "url": "https://www.yelp.com/biz/giacomos-ristorante-boston-boston?adjust_creative=Ia1y9jsFUbkc4cDEThEkMg&utm_campaign=yelp_api_v3&utm_medium=api_v3_business_search&utm_source=Ia1y9jsFUbkc4cDEThEkMg", "review_count": 3669, "categories": [{"alias": "italian", "title": "Italian"}, {"alias": "wine_bars", "title": "Wine Bars"}, {"alias": "seafood", "title": "Seafood"}], "rating": 4.0, "coordinates": {"latitude": 42.36458, "longitude": -71.05344}, "transactions": ["pickup", "delivery"], "price": "$$", "location": {"address1": "355 Hanover St", "address2": "", "address3": "", "city": "Boston", "zip_code": "02113", "country": "US", "state": "MA", "display_address": ["355 Hanover St", "Boston, MA 02113"]}, "phone": "+16175239026", "display_phone": "(617) 523-9026", "distance": 2371.606607135425}, {"id": "9gtpqrz-5bLzf6SlhYI3vA", "alias": "nagomi-izakaya-boston", "name": "Nagomi Izakaya", "image_url": "https://s3-media2.fl.yelpcdn.com/bphoto/gOnvh6_aJQieOliDuqpJGg/o.jpg", "is_closed": false, "url": "https://www.yelp.com/biz/nagomi-izakaya-boston?adjust_creative=Ia1y9jsFUbkc4cDEThEkMg&utm_campaign=yelp_api_v3&utm_medium=api_v3_business_search&utm_source=Ia1y9jsFUbkc4cDEThEkMg", "review_count": 11, "categories": [{"alias": "japanese", "title": "Japanese"}, {"alias": "sushi", "title": "Sushi Bars"}, {"alias": "beer_and_wine", "title": "Beer, Wine & Spirits"}], "rating": 4.5, "coordinates": {"latitude": 42.34958, "longitude": -71.09524}, "transactions": ["pickup", "delivery"], "location": {"address1": "636 Beacon St", "address2": null, "address3": "", "city": "Boston", "zip_code": "02215", "country": "US", "state": "MA", "display_address": ["636 Beacon St", "Boston, MA 02215"]}, "phone": "+16172678888", "display_phone": "(617) 267-8888", "distance": 1983.158812587348}, {"id": "nyy38msunExaObJOeH7j0Q", "alias": "bootleg-special-boston", "name": "Bootleg Special", "image_url": "https://s3-media4.fl.yelpcdn.com/bphoto/V8Yj12lxtgp0HxDtKycdmg/o.jpg", "is_closed": false, "url": "https://www.yelp.com/biz/bootleg-special-boston?adjust_creative=Ia1y9jsFUbkc4cDEThEkMg&utm_campaign=yelp_api_v3&utm_medium=api_v3_business_search&utm_source=Ia1y9jsFUbkc4cDEThEkMg", "review_count": 778, "categories": [{"alias": "cajun", "title": "Cajun/Creole"}, {"alias": "seafood", "title": "Seafood"}, {"alias": "tapas", "title": "Tapas Bars"}], "rating": 4.0, "coordinates": {"latitude": 42.3471199, "longitude": -71.06834}, "transactions": ["restaurant_reservation", "pickup", "delivery"], "price": "$$", "location": {"address1": "400 Tremont St", "address2": null, "address3": "", "city": "Boston", "zip_code": "02116", "country": "US", "state": "MA", "display_address": ["400 Tremont St", "Boston, MA 02116"]}, "phone": "+16174511800", "display_phone": "(617) 451-1800", "distance": 258.08125426364296}, {"id": "uXOVFQraz1va1TrtgiqYTg", "alias": "the-daily-catch-boston", "name": "The Daily Catch", "image_url": "https://s3-media4.fl.yelpcdn.com/bphoto/UrfaNI2kKVXNeMS91ryruA/o.jpg", "is_closed": false, "url": "https://www.yelp.com/biz/the-daily-catch-boston?adjust_creative=Ia1y9jsFUbkc4cDEThEkMg&utm_campaign=yelp_api_v3&utm_medium=api_v3_business_search&utm_source=Ia1y9jsFUbkc4cDEThEkMg", "review_count": 1719, "categories": [{"alias": "italian", "title": "Italian"}, {"alias": "seafood", "title": "Seafood"}], "rating": 4.0, "coordinates": {"latitude": 42.36406, "longitude": -71.05397}, "transactions": ["delivery"], "price": "$$", "location": {"address1": "323 Hanover St", "address2": "", "address3": "", "city": "Boston", "zip_code": "02113", "country": "US", "state": "MA", "display_address": ["323 Hanover St", "Boston, MA 02113"]}, "phone": "+16175238567", "display_phone": "(617) 523-8567", "distance": 2295.0046102648066}, {"id": "mP1EdIafQKMuOm9O4PzAfA", "alias": "barcelona-wine-bar-south-end-boston-6", "name": "Barcelona Wine Bar South End", "image_url": "https://s3-media3.fl.yelpcdn.com/bphoto/uj1Qc7bKWxIR9HtBOvob_w/o.jpg", "is_closed": false, "url": "https://www.yelp.com/biz/barcelona-wine-bar-south-end-boston-6?adjust_creative=Ia1y9jsFUbkc4cDEThEkMg&utm_campaign=yelp_api_v3&utm_medium=api_v3_business_search&utm_source=Ia1y9jsFUbkc4cDEThEkMg", "review_count": 1190, "categories": [{"alias": "spanish", "title": "Spanish"}, {"alias": "wine_bars", "title": "Wine Bars"}, {"alias": "tapasmallplates", "title": "Tapas/Small Plates"}], "rating": 4.5, "coordinates": {"latitude": 42.3449355147724, "longitude": -71.0705436362457}, "transactions": ["delivery"], "price": "$$", "location": {"address1": "525 Tremont St", "address2": null, "address3": "", "city": "Boston", "zip_code": "02116", "country": "US", "state": "MA", "display_address": ["525 Tremont St", "Boston, MA 02116"]}, "phone": "+16172662600", "display_phone": "(617) 266-2600", "distance": 328.22766734138577}, {"id": "E3Qqa99qFy1oeGMv0wPBBQ", "alias": "tora-japanese-restaurant-boston", "name": "Tora Japanese Restaurant", "image_url": "https://s3-media3.fl.yelpcdn.com/bphoto/dv7PoT6Glvfzkq4T_h-YHg/o.jpg", "is_closed": false, "url": "https://www.yelp.com/biz/tora-japanese-restaurant-boston?adjust_creative=Ia1y9jsFUbkc4cDEThEkMg&utm_campaign=yelp_api_v3&utm_medium=api_v3_business_search&utm_source=Ia1y9jsFUbkc4cDEThEkMg", "review_count": 518, "categories": [{"alias": "japanese", "title": "Japanese"}, {"alias": "sushi", "title": "Sushi Bars"}, {"alias": "poke", "title": "Poke"}], "rating": 4.5, "coordinates": {"latitude": 42.35076, "longitude": -71.06054}, "transactions": ["pickup", "delivery"], "price": "$$", "location": {"address1": "20B Tyler St", "address2": null, "address3": "", "city": "Boston", "zip_code": "02111", "country": "US", "state": "MA", "display_address": ["20B Tyler St", "Boston, MA 02111"]}, "phone": "+16175426688", "display_phone": "(617) 542-6688", "distance": 934.5498165988719}, {"id": "nIS4O-TwLYkA_P1Cu0SfhA", "alias": "yvonnes-boston", "name": "Yvonne's", "image_url": "https://s3-media3.fl.yelpcdn.com/bphoto/8ZNXlvNjow5xoUtjrQ1U-w/o.jpg", "is_closed": false, "url": "https://www.yelp.com/biz/yvonnes-boston?adjust_creative=Ia1y9jsFUbkc4cDEThEkMg&utm_campaign=yelp_api_v3&utm_medium=api_v3_business_search&utm_source=Ia1y9jsFUbkc4cDEThEkMg", "review_count": 1096, "categories": [{"alias": "newamerican", "title": "American (New)"}, {"alias": "lounges", "title": "Lounges"}], "rating": 4.0, "coordinates": {"latitude": 42.355517, "longitude": -71.0614361}, "transactions": ["delivery"], "price": "$$", "location": {"address1": "2 Winter Pl", "address2": null, "address3": "", "city": "Boston", "zip_code": "02108", "country": "US", "state": "MA", "display_address": ["2 Winter Pl", "Boston, MA 02108"]}, "phone": "+16172670047", "display_phone": "(617) 267-0047", "distance": 1173.8300908685944}, {"id": "AGR_kBvN__I7aTl0rBywAg", "alias": "atlantic-fish-co-boston-3", "name": "Atlantic Fish Co", "image_url": "https://s3-media3.fl.yelpcdn.com/bphoto/xJusgkYOtbNvBmf0Hzay5A/o.jpg", "is_closed": false, "url": "https://www.yelp.com/biz/atlantic-fish-co-boston-3?adjust_creative=Ia1y9jsFUbkc4cDEThEkMg&utm_campaign=yelp_api_v3&utm_medium=api_v3_business_search&utm_source=Ia1y9jsFUbkc4cDEThEkMg", "review_count": 2720, "categories": [{"alias": "seafood", "title": "Seafood"}, {"alias": "raw_food", "title": "Live/Raw Food"}, {"alias": "cocktailbars", "title": "Cocktail Bars"}], "rating": 4.0, "coordinates": {"latitude": 42.3492217873536, "longitude": -71.0811272917217}, "transactions": ["pickup", "delivery"], "price": "$$$", "location": {"address1": "761 Boylston St", "address2": "", "address3": "", "city": "Boston", "zip_code": "02116", "country": "US", "state": "MA", "display_address": ["761 Boylston St", "Boston, MA 02116"]}, "phone": "+16172674000", "display_phone": "(617) 267-4000", "distance": 826.6340017964785}, {"id": "xZ22_0eJOgaiKqIhoSHrPw", "alias": "bostonia-public-house-boston-4", "name": "Bostonia Public House", "image_url": "https://s3-media2.fl.yelpcdn.com/bphoto/My2FTin5UuNTtfULL6HdOQ/o.jpg", "is_closed": false, "url": "https://www.yelp.com/biz/bostonia-public-house-boston-4?adjust_creative=Ia1y9jsFUbkc4cDEThEkMg&utm_campaign=yelp_api_v3&utm_medium=api_v3_business_search&utm_source=Ia1y9jsFUbkc4cDEThEkMg", "review_count": 1565, "categories": [{"alias": "newamerican", "title": "American (New)"}, {"alias": "musicvenues", "title": "Music Venues"}, {"alias": "cocktailbars", "title": "Cocktail Bars"}], "rating": 4.0, "coordinates": {"latitude": 42.359213, "longitude": -71.054296}, "transactions": ["pickup", "delivery"], "price": "$$", "location": {"address1": "131 State St", "address2": "", "address3": "", "city": "Boston", "zip_code": "02109", "country": "US", "state": "MA", "display_address": ["131 State St", "Boston, MA 02109"]}, "phone": "+16179489800", "display_phone": "(617) 948-9800", "distance": 1880.9978483543537}], "total": 240, "region": {"center": {"longitude": -71.07124328613281, "latitude": 42.34784169448538}}}